{
"type": "FeatureCollection",
"name": "EMSR383_AOI02_FEP_PRODUCT_builtUpP_r1_v1",
"crs": { "type": "name", "properties": { "name": "urn:ogc:def:crs:OGC:1.3:CRS84" } },
"features": [
{ "type": "Feature", "properties": { "obj_type": "11-Residential Buildings", "name": "Mirador", "info": "997-Not Applicable", "damage_gra": "Not Analysed", "det_method": "Not Applicable", "notation": "Building point", "or_src_id": 994, "dmg_src_id": 0, "cd_value": "Not Applicable" }, "geometry": { "type": "Point", "coordinates": [ -60.043298399999969, -18.137278499999979 ] } },
{ "type": "Feature", "properties": { "obj_type": "11-Residential Buildings", "name": "Gasolinera - Surtidor - Grifo", "info": "997-Not Applicable", "damage_gra": "Not Analysed", "det_method": "Not Applicable", "notation": "Building point", "or_src_id": 994, "dmg_src_id": 0, "cd_value": "Not Applicable" }, "geometry": { "type": "Point", "coordinates": [ -59.752370699999972, -18.332782 ] } },
{ "type": "Feature", "properties": { "obj_type": "12-Non-residential Buildings", "name": "Sagrada Familia", "info": "1263-School, university and research buildings", "damage_gra": "Not Analysed", "det_method": "Not Applicable", "notation": "Building point", "or_src_id": 994, "dmg_src_id": 0, "cd_value": "Not Applicable" }, "geometry": { "type": "Point", "coordinates": [ -59.757591199999979, -18.330873 ] } },
{ "type": "Feature", "properties": { "obj_type": "12-Non-residential Buildings", "name": "San Francisco de Asís", "info": "1263-School, university and research buildings", "damage_gra": "Not Analysed", "det_method": "Not Applicable", "notation": "Building point", "or_src_id": 994, "dmg_src_id": 0, "cd_value": "Not Applicable" }, "geometry": { "type": "Point", "coordinates": [ -59.757011899999952, -18.329457399999967 ] } },
{ "type": "Feature", "properties": { "obj_type": "12-Non-residential Buildings", "name": "Marista de los Sagrados Corazones", "info": "1263-School, university and research buildings", "damage_gra": "Not Analysed", "det_method": "Not Applicable", "notation": "Building point", "or_src_id": 994, "dmg_src_id": 0, "cd_value": "Not Applicable" }, "geometry": { "type": "Point", "coordinates": [ -59.756486099999961, -18.340270399999952 ] } },
{ "type": "Feature", "properties": { "obj_type": "12-Non-residential Buildings", "name": "Caja Petrolera de Salud", "info": "1264-Hospital or institutional care buildings", "damage_gra": "Not Analysed", "det_method": "Not Applicable", "notation": "Building point", "or_src_id": 994, "dmg_src_id": 0, "cd_value": "Not Applicable" }, "geometry": { "type": "Point", "coordinates": [ -59.746739599999955, -18.333340699999951 ] } },
{ "type": "Feature", "properties": { "obj_type": "12-Non-residential Buildings", "name": "Unknown", "info": "1272-Buildings used as places of worship and for religious activities", "damage_gra": "Not Analysed", "det_method": "Not Applicable", "notation": "Building point", "or_src_id": 994, "dmg_src_id": 0, "cd_value": "Not Applicable" }, "geometry": { "type": "Point", "coordinates": [ -60.366671099999962, -17.904595099999938 ] } },
{ "type": "Feature", "properties": { "obj_type": "12-Non-residential Buildings", "name": "Santuario de Chochís", "info": "1272-Buildings used as places of worship and for religious activities", "damage_gra": "Not Analysed", "det_method": "Not Applicable", "notation": "Building point", "or_src_id": 994, "dmg_src_id": 0, "cd_value": "Not Applicable" }, "geometry": { "type": "Point", "coordinates": [ -60.043719099999976, -18.136729699999933 ] } },
{ "type": "Feature", "properties": { "obj_type": "12-Non-residential Buildings", "name": "Cristo Rey", "info": "1272-Buildings used as places of worship and for religious activities", "damage_gra": "Not Analysed", "det_method": "Not Applicable", "notation": "Building point", "or_src_id": 994, "dmg_src_id": 0, "cd_value": "Not Applicable" }, "geometry": { "type": "Point", "coordinates": [ -59.756979699999931, -18.330506399999933 ] } },
{ "type": "Feature", "properties": { "obj_type": "12-Non-residential Buildings", "name": "Terminal de buses Roboré", "info": "1241-Communication buildings, stations, terminals and associated buildings", "damage_gra": "Not Analysed", "det_method": "Not Applicable", "notation": "Building point", "or_src_id": 994, "dmg_src_id": 0, "cd_value": "Not Applicable" }, "geometry": { "type": "Point", "coordinates": [ -59.751143199999944, -18.347773199999949 ] } },
{ "type": "Feature", "properties": { "obj_type": "12-Non-residential Buildings", "name": "Roboré Estación", "info": "1241-Communication buildings, stations, terminals and associated buildings", "damage_gra": "Not Analysed", "det_method": "Not Applicable", "notation": "Building point", "or_src_id": 994, "dmg_src_id": 0, "cd_value": "Not Applicable" }, "geometry": { "type": "Point", "coordinates": [ -59.746864099999982, -18.336537399999941 ] } }
]
}
